[
    {
        "TournamentID": 606,
        "Name": "Rocket Mortgage Classic",
        "StartDate": "2024-06-27T00:00:00",
        "EndDate": "2024-06-30T00:00:00",
        "Venue": "Detroit Golf Club",
        "Location": "Detroit, MI",
        "City": "Detroit",
        "State": "MI",
        "Country": "USA"
    },
    {
        "TournamentID": 578,
        "Name": "U.S. Open",
        "StartDate": "2024-06-13T00:00:00",
        "EndDate": "2024-06-16T00:00:00",
        "Venue": "Pinehurst No. 2",
        "Location": "Pinehurst, NC",
        "City": "Village of Pinehurst",
        "State": "NC",
        "Country": "USA"
    },
    {
        "TournamentID": 604,
        "Name": "the Memorial Tournament pres. by Workday",
        "StartDate": "2024-06-06T00:00:00",
        "EndDate": "2024-06-09T00:00:00",
        "Venue": "Muirfield Village Golf Club",
        "Location": "Dublin, OH",
        "City": "Dublin",
        "State": "OH",
        "Country": "USA"
    },
    {
        "TournamentID": 602,
        "Name": "Charles Schwab Challenge",
        "StartDate": "2024-05-23T00:00:00",
        "EndDate": "2024-05-26T00:00:00",
        "Venue": "Colonial Country Club",
        "Location": "Fort Worth, TX",
        "City": "Fort Worth",
        "State": "TX",
        "Country": "USA"
    },
    {
        "TournamentID": 601,
        "Name": "Wells Fargo Championship",
        "StartDate": "2024-05-09T00:00:00",
        "EndDate": "2024-05-12T00:00:00",
        "Venue": "Quail Hollow Club",
        "Location": "Charlotte, NC",
        "City": "Charlotte",
        "State": "NC",
        "Country": "USA"
    },
    {
        "TournamentID": 597,
        "Name": "RBC Heritage",
        "StartDate": "2024-04-18T00:00:00",
        "EndDate": "2024-04-21T00:00:00",
        "Venue": "Harbour Town Golf Links",
        "Location": "Hilton Head Island, SC",
        "City": "Hilton Head Island",
        "State": "SC",
        "Country": "USA"
    },
    {
        "TournamentID": 575,
        "Name": "Masters Tournament",
        "StartDate": "2024-04-11T00:00:00",
        "EndDate": "2024-04-14T00:00:00",
        "Venue": "Augusta National Golf Club",
        "Location": "Augusta, GA",
        "City": "Augusta",
        "State": "GA",
        "Country": "USA"
    },
    {
        "TournamentID": 592,
        "Name": "Arnold Palmer Invitational pres. by Mastercard",
        "StartDate": "2024-03-07T00:00:00",
        "EndDate": "2024-03-10T00:00:00",
        "Venue": "Arnold Palmer's Bay Hill Club & Lodge",
        "Location": "Orlando, FL",
        "City": "Orlando",
        "State": "FL",
        "Country": "USA"
    },
    {
        "TournamentID": 588,
        "Name": "The Genesis Invitational",
        "StartDate": "2024-02-15T00:00:00",
        "EndDate": "2024-02-18T00:00:00",
        "Venue": "Riviera Country Club",
        "Location": "Pacific Palisades, CA",
        "City": "Pacific Palisades",
        "State": "CA",
        "Country": "USA"
    },
    {
        "TournamentID": 587,
        "Name": "WM Phoenix Open",
        "StartDate": "2024-02-08T00:00:00",
        "EndDate": "2024-02-11T00:00:00",
        "Venue": "TPC Scottsdale (Stadium Course)",
        "Location": "Scottsdale, AZ",
        "City": "Scottsdale",
        "State": "AZ",
        "Country": "USA"
    }
]
